County,State,fips,Latitude,Longitude,Confirmed Cases,Deaths
Providence,RHODE ISLAND,44007,41.8677428,-71.5814834,2703,20
Kent,RHODE ISLAND,44003,41.6722912,-71.602762,299,0
Washington,RHODE ISLAND,44009,41.463239,-71.7039673,183,0
Newport,RHODE ISLAND,44005,41.5107263,-71.2971352,103,0
Bristol,RHODE ISLAND,44001,41.7034082,-71.2844401,57,0
Unknown,RHODE ISLAND,44,,,832,98
