County,State,fips,Latitude,Longitude,Confirmed Cases,Deaths
Providence,RHODE ISLAND,44007,41.8677428,-71.5814834,5967,132
Kent,RHODE ISLAND,44003,41.6722912,-71.602762,598,4
Washington,RHODE ISLAND,44009,41.463239,-71.7039673,324,11
Newport,RHODE ISLAND,44005,41.5107263,-71.2971352,148,0
Bristol,RHODE ISLAND,44001,41.7034082,-71.2844401,145,0
Unknown,RHODE ISLAND,44,,,1065,104
