County,State,fips,Latitude,Longitude,Confirmed Cases,Deaths,Recoveries
Anderson,Texas,48001,31.81534745,-95.65354823,18,0,0
Andrews,Texas,48003,32.30468633,-102.63765479999999,19,0,0
Angelina,Texas,48005,31.25457347,-94.60901487,33,0,0
Aransas,Texas,48007,28.10556197,-96.9995047,2,0,0
Armstrong,Texas,48011,34.96507426,-101.35748740000001,1,0,0
Atascosa,Texas,48013,28.89333001,-98.52730485,14,1,0
Austin,Texas,48015,29.88548725,-96.27736949,12,0,0
Bandera,Texas,48019,29.74619598,-99.24598147,4,0,0
Bastrop,Texas,48021,30.10370699,-97.31206354,57,2,0
Bee,Texas,48025,28.41761668,-97.74215593,6,0,0
Bell,Texas,48027,31.03736027,-97.4785025,161,3,0
Bexar,Texas,48029,29.44928723,-98.52019748,1334,43,0
Blanco,Texas,48031,30.26640707,-98.3999852,6,0,0
Bosque,Texas,48035,31.89978581,-97.63613524,3,0,0
Bowie,Texas,48037,33.44626922,-94.41834132,67,1,0
Brazoria,Texas,48039,29.18757369,-95.44563172,417,3,0
Brazos,Texas,48041,30.663644800000004,-96.30205577,181,16,0
Brooks,Texas,48047,27.03103197,-98.21808402,1,0,0
Brown,Texas,48049,31.77430356,-98.99907113,17,1,0
Burleson,Texas,48051,30.49273808,-96.62158484,11,0,0
Burnet,Texas,48053,30.78801353,-98.181887,14,0,0
Caldwell,Texas,48055,29.83668859,-97.61814775,10,0,0
Calhoun,Texas,48057,28.47048236,-96.61633945,23,2,0
Callahan,Texas,48059,32.29760619,-99.37326312,1,0,0
Cameron,Texas,48061,26.14524221,-97.48140372,344,14,0
Camp,Texas,48063,32.97195142,-94.97790104,6,0,0
Carson,Texas,48065,35.40365929,-101.35426690000001,1,0,0
Cass,Texas,48067,33.07499881,-94.34646905,13,0,0
Castro,Texas,48069,34.53016752,-102.2617243,13,1,0
Chambers,Texas,48071,29.70972016,-94.67154501,41,0,0
Cherokee,Texas,48073,31.837258000000002,-95.16559897,12,1,0
Childress,Texas,48075,34.529304100000004,-100.2077916,1,0,0
Clay,Texas,48077,33.78686685,-98.20771198,3,0,0
Cochran,Texas,48079,33.60425307,-102.82844990000001,1,0,0
Coleman,Texas,48083,31.76736834,-99.45240766,1,0,0
Collin,Texas,48085,33.18820114,-96.57264368,639,16,0
Colorado,Texas,48089,29.622097999999998,-96.5273805,10,0,0
Comal,Texas,48091,29.80811278,-98.27647225,48,6,0
Comanche,Texas,48093,31.94854689,-98.55876441,4,0,0
Concho,Texas,48095,31.32635934,-99.86473038,1,0,0
Cooke,Texas,48097,33.63979567,-97.21240912,4,0,0
Coryell,Texas,48099,31.39078397,-97.79936155,103,1,0
Crane,Texas,48103,31.43052248,-102.5143314,2,0,0
Crosby,Texas,48107,33.61431553,-101.30003640000001,2,1,0
Dallam,Texas,48111,36.27787176,-102.60207249999999,4,1,0
Dallas,Texas,48113,32.76670599,-96.77796049999999,2834,77,0
Dawson,Texas,48115,32.74255572,-101.94772420000001,18,1,0
DeWitt,Texas,48123,29.08101855,-97.35681170000001,14,1,0
Deaf Smith,Texas,48117,34.96522957,-102.6054267,21,0,0
Delta,Texas,48119,33.38570922,-95.66921122,1,0,0
Denton,Texas,48121,33.20521901,-97.11691153,680,19,0
Dickens,Texas,48125,33.61616822,-100.7788855,1,0,0
Dimmit,Texas,48127,28.42270064,-99.75645095,1,0,0
Donley,Texas,48129,34.96517499,-100.8140093,24,0,0
Duval,Texas,48131,27.68184592,-98.50864568,1,0,0
Eastland,Texas,48133,32.32743996,-98.83243566,3,0,0
Ector,Texas,48135,31.86898877,-102.54294279999999,67,4,0
El Paso,Texas,48141,31.76980765,-106.23632749999999,706,10,0
Ellis,Texas,48139,32.34894117,-96.79371841,121,4,0
Erath,Texas,48143,32.23602653,-98.21773417,13,1,0
Falls,Texas,48145,31.25350609,-96.93630086,1,0,0
Fannin,Texas,48147,33.59564294,-96.10751083,13,0,0
Fayette,Texas,48149,29.87788372,-96.92076062,15,1,0
Floyd,Texas,48153,34.07227468,-101.3031546,3,0,0
Fort Bend,Texas,48157,29.52704478,-95.77219463,889,20,0
Franklin,Texas,48159,33.17653242,-95.21917243,1,0,0
Freestone,Texas,48161,31.70422788,-96.15072516,3,0,0
Frio,Texas,48163,28.86751206,-99.10804207,1,0,0
Gaines,Texas,48165,32.74055318,-102.6353295,2,0,0
Galveston,Texas,48167,29.40167322,-94.90469073,522,21,0
Gillespie,Texas,48171,30.31824095,-98.94676915,1,0,0
Goliad,Texas,48175,28.65696592,-97.42760647,6,0,0
Gonzales,Texas,48177,29.45634206,-97.49424032,4,0,0
Gray,Texas,48179,35.40081878,-100.8129222,32,0,0
Grayson,Texas,48181,33.62744998,-96.67753461,19,0,0
Gregg,Texas,48183,32.47940482,-94.81591935,59,0,0
Grimes,Texas,48185,30.54579585,-95.98902499,13,1,0
Guadalupe,Texas,48187,29.58165339,-97.94786822,64,0,0
Hale,Texas,48189,34.07044901,-101.82681140000001,19,4,0
Hamilton,Texas,48193,31.70470573,-98.11083887,5,0,0
Hansford,Texas,48195,36.27743284,-101.3545796,2,0,0
Hardin,Texas,48199,30.33364686,-94.38931817,92,3,0
Harris,Texas,48201,29.86,-95.39,5482,84,0
Harrison,Texas,48203,32.54935988,-94.36934071,69,4,0
Hartley,Texas,48205,35.84008013,-102.6029022,4,0,0
Hays,Texas,48209,30.05669873,-98.02944344,147,1,0
Hemphill,Texas,48211,35.83764858,-100.2703577,1,0,0
Henderson,Texas,48213,32.21128872,-95.85846587,22,0,0
Hidalgo,Texas,48215,26.39418217,-98.18299696,290,4,0
Hill,Texas,48217,31.99045053,-97.13423143,15,1,0
Hockley,Texas,48219,33.60771256,-102.3431676,19,1,0
Hood,Texas,48221,32.42990927,-97.83242024,17,3,0
Hopkins,Texas,48223,33.14875072,-95.56351139,4,0,0
Houston,Texas,48225,31.31925973,-95.42226208,6,0,0
Howard,Texas,48227,32.30621324,-101.4356444,4,1,0
Hunt,Texas,48231,33.12351514,-96.08551032,38,2,0
Hutchinson,Texas,48233,35.84006574,-101.3546643,10,0,0
Jack,Texas,48237,33.23377248,-98.17283469,4,0,0
Jackson,Texas,48239,28.95472367,-96.57749563,6,0,0
Jasper,Texas,48241,30.74685667,-94.02667579,14,1,0
Jefferson,Texas,48245,29.8832777,-94.16434171,240,16,0
Jim Hogg,Texas,48247,27.04453923,-98.69681870000001,1,0,0
Jim Wells,Texas,48249,27.73103938,-98.0904705,2,0,0
Johnson,Texas,48251,32.37877812,-97.36615819,54,1,0
Jones,Texas,48253,32.73997145,-99.87861576,7,0,0
Karnes,Texas,48255,28.90705334,-97.85960149,3,0,0
Kaufman,Texas,48257,32.599141700000004,-96.28734728,62,0,0
Kendall,Texas,48259,29.94414155,-98.7113588,15,0,0
Kerr,Texas,48265,30.06040006,-99.34930144,5,0,0
Kleberg,Texas,48273,27.42435506,-97.69894948,7,1,0
Knox,Texas,48275,33.60519951,-99.74229059999999,1,0,0
La Salle,Texas,48283,28.34453111,-99.09908775,1,0,0
Lamar,Texas,48277,33.66981763,-95.57404777,8,0,0
Lamb,Texas,48279,34.06859623,-102.35162890000001,2,0,0
Lampasas,Texas,48281,31.19531316,-98.24206613,2,0,0
Lavaca,Texas,48285,29.38508402,-96.93186692,5,0,0
Lee,Texas,48287,30.31120597,-96.97045773,2,0,0
Leon,Texas,48289,31.29872538,-95.9936328,5,0,0
Liberty,Texas,48291,30.15152688,-94.81205615,37,0,0
Limestone,Texas,48293,31.5454767,-96.58095444,11,1,0
Live Oak,Texas,48297,28.35101362,-98.1246786,5,0,0
Llano,Texas,48299,30.70645047,-98.68475262,3,0,0
Lubbock,Texas,48303,33.61008596,-101.82047890000001,494,40,0
Lynn,Texas,48305,33.17657705,-101.8162849,5,1,0
Madison,Texas,48313,30.96694679,-95.93003775,2,0,0
Marion,Texas,48315,32.79868409,-94.35661230000001,6,0,0
Martin,Texas,48317,32.30600051,-101.9513518,2,0,0
Mason,Texas,48319,30.71780434,-99.22629416,1,0,0
Matagorda,Texas,48321,28.81955746,-96.01230294,59,3,0
Maverick,Texas,48323,28.7429195,-100.3157686,15,0,0
McCulloch,Texas,48307,31.1925468,-99.34682807,3,0,0
McLennan,Texas,48309,31.55255453,-97.20217694,81,4,0
Medina,Texas,48325,29.355730100000002,-99.11030298,17,2,0
Midland,Texas,48329,31.86904128,-102.03156820000001,69,5,0
Milam,Texas,48331,30.78581830000001,-96.97718698,13,1,0
Mitchell,Texas,48335,32.30623474,-100.9212058,1,0,0
Montague,Texas,48337,33.67521893,-97.72500958,6,1,0
Montgomery,Texas,48339,30.30079133,-95.50572772,496,9,0
Moore,Texas,48341,35.83769242,-101.8930281,186,2,0
Morris,Texas,48343,33.11304005,-94.73255695,5,0,0
Motley,Texas,48345,34.07408766,-100.77972199999999,1,0,0
Nacogdoches,Texas,48347,31.62017125,-94.61803994,115,7,0
Navarro,Texas,48349,32.04620681,-96.47428766,26,2,0
Newton,Texas,48351,30.78548982,-93.74408813,2,0,0
Nolan,Texas,48353,32.30365282,-100.4060208,1,0,0
Nueces,Texas,48355,27.736286,-97.5433285,91,1,0
Ochiltree,Texas,48357,36.27829105,-100.8158184,1,0,0
Oldham,Texas,48359,35.40425596,-102.6027606,3,1,0
Orange,Texas,48361,30.11879481,-93.89412775,63,0,0
Palo Pinto,Texas,48363,32.75310985,-98.31319001,7,1,0
Panola,Texas,48365,32.163959600000005,-94.30552481,75,5,0
Parker,Texas,48367,32.77757172,-97.80500621,23,0,0
Parmer,Texas,48369,34.52993409,-102.78446679999999,4,0,0
Pecos,Texas,48371,30.78097267,-102.72412609999999,6,0,0
Polk,Texas,48373,30.79472531,-94.82766240000001,18,0,0
Potter,Texas,48375,35.40133773,-101.893964,221,5,0
Rains,Texas,48379,32.87109387,-95.79232691,2,0,0
Randall,Texas,48381,34.96585996,-101.8971322,137,3,0
Red River,Texas,48387,33.61886692,-95.04841765,1,0,0
Reeves,Texas,48389,31.32323325,-103.69038959999999,2,0,0
Roberts,Texas,48393,35.83809685,-100.813175,2,0,0
Robertson,Texas,48395,31.02539637,-96.51272246,2,0,0
Rockwall,Texas,48397,32.89779518,-96.40771592,49,0,0
Rusk,Texas,48401,32.10773545,-94.76176432,30,1,0
Sabine,Texas,48403,31.34318809,-93.85440451,1,0,0
San Augustine,Texas,48405,31.39457611,-94.17000399,16,1,0
San Jacinto,Texas,48407,30.57933681,-95.16260304,10,0,0
San Patricio,Texas,48409,28.00880118,-97.51763891,11,0,0
Scurry,Texas,48415,32.74613808,-100.91626640000001,2,0,0
Shelby,Texas,48419,31.79211404,-94.14550696,86,0,0
Sherman,Texas,48421,36.27751473,-101.8933156,10,0,0
Smith,Texas,48423,32.37474036,-95.27175679999999,131,3,0
Starr,Texas,48427,26.56150059,-98.73892358,7,0,0
Stephens,Texas,48429,32.73553157,-98.83631615,1,0,0
Swisher,Texas,48437,34.53028891,-101.73491740000001,7,0,0
Tarrant,Texas,48439,32.77143818,-97.29101614,1706,48,0
Taylor,Texas,48441,32.30163422,-99.89007449,203,3,0
Terry,Texas,48445,33.17402785,-102.3354521,10,0,0
Titus,Texas,48449,33.21339719,-94.96797273,15,0,0
Tom Green,Texas,48451,31.40464436,-100.46244300000001,42,1,0
Travis,Texas,48453,30.33432034,-97.78535620000001,1379,32,0
Trinity,Texas,48455,31.0879489,-95.1367187,8,0,0
Tyler,Texas,48457,30.77031716,-94.37690895,6,0,0
Upshur,Texas,48459,32.73706798,-94.93999853,13,0,0
Uvalde,Texas,48463,29.35739637,-99.76229172,6,0,0
Val Verde,Texas,48465,29.89149232,-101.1525205,12,0,0
Van Zandt,Texas,48467,32.56483801,-95.83766469,13,1,0
Victoria,Texas,48469,28.79780988,-96.96813006,105,2,0
Walker,Texas,48471,30.73872995,-95.57440968,151,2,0
Waller,Texas,48473,30.01058447,-95.99011759,27,0,0
Washington,Texas,48477,30.21498498,-96.40946246,78,11,0
Webb,Texas,48479,27.7610369,-99.33237355,321,12,0
Wharton,Texas,48481,29.27765923,-96.22319248,36,0,0
Wheeler,Texas,48483,35.40114335,-100.26995140000001,3,0,0
Wichita,Texas,48485,33.98842886,-98.70410340000001,62,2,0
Wilbarger,Texas,48487,34.07945812,-99.24178437,1,0,0
Willacy,Texas,48489,26.47411727,-97.61535848,10,1,0
Williamson,Texas,48491,30.64655664,-97.60048540000001,182,5,0
Wilson,Texas,48493,29.1732598,-98.08693082,25,2,0
Winkler,Texas,48495,31.85008651,-103.04851629999999,3,0,0
Wise,Texas,48497,33.21570665,-97.65460265,14,2,0
Wood,Texas,48499,32.78722382,-95.38236368,7,0,0
Yoakum,Texas,48501,33.17320212,-102.82764329999999,1,0,0
Young,Texas,48503,33.17659707,-98.68790885,4,1,0
Zapata,Texas,48505,27.00156391,-99.16987152,7,0,0
Zavala,Texas,48507,28.86617238,-99.76050829,1,0,0
